{
  "drama":
  [
      {
        "name": "Our Beloved Summer",
        "desc": "Years after filming a viral documentary in high school, two bickering ex-lovers get pulled back in front of the camera — and into each other's lives.",
        "poster": "https://thumb.mtstarnews.com/06/2021/11/2021112409265720490_1.jpg",
        "spots": [
          {
            "name": "CHOONGANG HIGH SCHOOL",
            "desc": "Yeonsoo and Woong's high school days",
            "image": "https://static.hubzum.zumst.com/hubzum/2022/01/21/13/e57b813fe2dc4b2b8260aed99457aca5.png",
            "latitude" : 37.584009,
            "longitude": 126.986800
          },
          {
            "name": "Osan Dolmen Park",
            "desc": "a shelter from a sudden shower",
            "image": "https://static.hubzum.zumst.com/hubzum/2022/01/21/13/89292c00239141c08bdc4a99ff476a5e.png",
            "latitude" : 37.173918,
            "longitude": 127.048204
          },
          {
            "name": "Suwon Hwaseong",
            "desc": "Doing a picnic date",
            "image": "https://static.hubzum.zumst.com/hubzum/2022/01/21/13/a1315b6316f942639c9366c0ea1a7242.png",
            "latitude" : 37.287944,
            "longitude": 127.018969
          },
          {
            "name": "Gungpyeong Port",
            "desc": "The place where Yeonsoo and Woong went on a trip",
            "image": "https://static.hubzum.zumst.com/hubzum/2022/01/21/13/f4b94f2f16e04c72908574be1c73e71c.png",
            "latitude" : 37.115672,
            "longitude": 126.680874
          }
        ]
    },
    {
      "name": "ITAEWON CLASS",
      "desc": "In a colorful Seoul neighborhood, an ex-con and his friends fight a mighty foe to make their ambitious dreams for their street bar a reality.",
      "poster": "https://upload.wikimedia.org/wikipedia/ko/f/f4/드라마_이태원_클라쓰_포스터.jpg",
      "spots": [
        {
          "name": "DanBam",
          "desc": "a Pub run by Saeroi",
          "image": "https://mblogthumb-phinf.pstatic.net/MjAyMDAzMTdfMTA2/MDAxNTg0NDMwODA1NjM5.7PY2kRGPxnAvvqG35Gt15hIjiAZxRB23_9onbCU_iGog.hIyZO8vpOEwfzF4kQdpKCT2GU0nmFgk3iJzT85NfFNog.JPEG.hshyun0602/1.단밤1.jpg?type=w800",
          "latitude" : 37.540034,
          "longitude": 126.992123
        },
        {
          "name": "Bokwang Gosiwon",
          "desc": "Dorm where Geunsu left home and lived alone",
          "image": "https://mblogthumb-phinf.pstatic.net/MjAyMDAzMTdfODUg/MDAxNTg0NDMwODA1NDU0.sp3gSA149hVh5A8b7vV8VD5vWh40mgb5ZP_ilTni5uQg.WZ8JREKMjrYphvjlYH8Onx5tLH37Ix3cximWqsqxa-cg.JPEG.hshyun0602/3._보광.jpg?type=w800",
          "latitude" : 37.533405,
          "longitude": 126.994909
        },
        {
          "name": "Noksapyeong Overpass",
          "desc": "Where Saeroi tells Leeseo 'I needs you'.",
          "image": "https://mblogthumb-phinf.pstatic.net/MjAyMDAzMTNfMzEg/MDAxNTg0MDY4MzY2ODg2.CvGX1w4-VN5Q5CI-7mde56L2dIp25yigzitUO_lbeKIg.j-dBnuqjXkCl-JEJzPgvr99Y91P9jHaxAMDVpetl554g.JPEG.you1620/1584068365767.jpg?type=w800",
          "latitude" : 37.534846,
          "longitude": 126.987068
        },
        {
          "name": "Soo-a's house",
          "desc": "Soo-a's house in the drama.",
          "image": "https://dispatch.cdnser.be/cms-content/uploads/2020/02/02/cdef26b7-d22e-4c33-9009-6b305ee05cde.png",
          "latitude" : 37.547498,
          "longitude": 126.983852
        }
      ]
    },
    {
      "name": "Guardian: The Lonely and Great God",
      "desc": "In his quest for a bride to break his immortal curse, a 939-year-old guardian of souls meets a grim reaper and a sprightly student with a tragic past.",
      "poster": "https://upload.wikimedia.org/wikipedia/ko/6/63/드라마_도깨비_포스터2.jpg",
      "spots": [
        {
          "name": "Yeongjin Beach in Jumunjin",
          "desc": "red scarf and buckwheat flowers.",
          "image": "https://mblogthumb-phinf.pstatic.net/MjAxNzAxMDNfMTUx/MDAxNDgzNDEwNzcxNDY1.GmFhouITyMFet4mjLuoKq3v2AKjaw6rHJC1xYffv7uog.JJlN5P1XIg6nW98FRWHKAhMK2RGLdPbUwl_bxAiSPq4g.PNG.styleonme_/주문진.PNG?type=w2",
          "latitude" : 37.879932,
          "longitude": 128.834248
        },
        {
          "name": "Unhyon Palace Western Hall",
          "desc": "The place where Kim Shin stayed in the drama",
          "image": "https://t1.daumcdn.net/cfile/blog/2121A73658B53A021C",
          "latitude" : 37.576092,
          "longitude": 126.987055
        },
        {
          "name": "the Hanmi Bookstore",
          "desc": "The place Gong Yoo and Kim Go Eun used to walk to",
          "image": "https://mblogthumb-phinf.pstatic.net/MjAxNzAxMDNfNiAg/MDAxNDgzNDEwNzc5MjM4.J-6C59zWT_4TrrHcyuN2tYtJt0Kk6Nk1bF6DnQFdMP0g.xr2w06poEnmbaj1fY1hZKmBYG46eSBGFV2CkAode-osg.PNG.styleonme_/인천한미.PNG?type=w2",
          "latitude" : 37.472618,
          "longitude": 126.636638
        },
        {
          "name": "Exit 2 of Yongdap Station",
          "desc": "The place where the Grim Reaper and Sunny meet for the first time",
          "image": "https://t1.daumcdn.net/thumb/R1280x0/?fname=http://t1.daumcdn.net/brunch/service/user/2ycP/image/SojVGFeY-JprBsIc8M6GDBSw9Bc.jpg",
          "latitude" : 37.562434,
          "longitude": 127.049995
        }
      ]
    },
    {
      "name": "Squid Game",
      "desc": "Hundreds of cash-strapped players accept a strange invitation to compete in children's games. Inside, a tempting prize awaits — with deadly high stakes.",
      "poster": "https://dimg.donga.com/wps/SPORTS/IMAGE/2021/08/23/108706603.1.jpg",
      "spots": [
        {
          "name": "Yangjae Citizen's Forest Station",
          "desc": "The place where Kihoon and Gong Yoo played slap-match",
          "image": "https://image.ytn.co.kr/general/jpg/2021/1014/202110141538101680_img_07.jpg",
          "latitude" : 37.470175,
          "longitude": 127.038462
        },
        {
          "name": "Paldo-Geon eo mul",
          "desc": "A fish shop run by Sangwoo's mother",
          "image": "https://blog.kakaocdn.net/dn/bGQhYV/btrgXgMcnC6/kGKcwnkdpwmAFCE58cblg0/img.jpg",
          "latitude" : 37.65566,
          "longitude": 127.015251
        },
        {
          "name": "CU Ssangmun Uicheon Branch",
          "desc": "The place where Il-Nam and Ki-Hoon drank",
          "image": "https://image.ytn.co.kr/general/jpg/2021/1014/202110141538101680_img_01.jpg",
          "latitude" : 37.649755,
          "longitude": 127.019998
        },
        {
          "name": "Airport Cargo Office Station",
          "desc": "The winner, Ki-Hoon, encountered Gong Yoo again",
          "image": "https://www.sceen-it.com/Service/sceenit/sceen/medium/76226.jpg/nos/.jpg",
          "latitude" : 37.458979,
          "longitude": 126.477415
        }
      ]
    },
    {
      "name": "Crash Landing on You",
      "desc": "A paragliding mishap drops a South Korean heiress in North Korea -- and into the life of an army officer, who decides he will help her hide.",
      "poster": "https://upload.wikimedia.org/wikipedia/ko/c/cc/사랑의_불시착_포스터.jpg",
      "spots": [
        {
          "name": "Byeolmaro Observatory",
          "desc": "Where Seri used to paragliding",
          "image": "https://mblogthumb-phinf.pstatic.net/MjAyMDAyMTlfMjcz/MDAxNTgyMTA3MDMyOTY5.g1w-5IC7ooGsus55AdBX5ekuXVpU29HrkB24fByfYYMg.9Pi_LBHJKJdjjpBuh465ahZoYJ0fNroxn7gIMVgteTMg.JPEG.kmhjs114/chunmunde.jpg?type=w800",
          "latitude" : 37.198408,
          "longitude": 128.486894
        },
        {
          "name": "Yeongjongdo Fairy Rock",
          "desc": "The place where Jo Cheol-gang and Jeong-hyuk came out of the tunnel",
          "image": "https://wishbeen-seoul.s3.ap-northeast-2.amazonaws.com/post/1582866731373_sunyeo.jpg",
          "latitude" : 37.438454,
          "longitude": 126.378436
        },
        {
          "name": "Hantan River Sky Bridge",
          "desc": "The place where Seri and Jung-Hyuk talked about their past",
          "image": "https://mblogthumb-phinf.pstatic.net/MjAyMDAyMDlfMTMx/MDAxNTgxMTc3MDg1MTA1.jh_z7gCtBOIhaiERIZGojsVvfAHS6hxVVNQan_jJPEgg.XqIkQKDscWShuN8TTcNCFiXPffr34hTG8ecIbXlIhAkg.JPEG.eocorsu/IMG_9459.jpg?type=w800",
          "latitude" : 38.084359,
          "longitude": 127.217968
        },
        {
          "name": "BBQ Ewha Womans Univ. Branch",
          "desc": "Where North Korean soldiers were looking after they came down to Seoul",
          "image": "https://blog.kakaocdn.net/dn/kZhD7/btqBOsHYB6h/tRk4n1JYT3uzTRS0UFWGdk/img.png",
          "latitude" : 37.558113,
          "longitude": 126.943556
        },
        {
          "name": "amco HERITZ",
          "desc": "Where Se-ri and Jeong-hyeok reunited in South Korea",
          "image": "https://thumb.wishbeen.com/pFDvKk33E9vmbrjIzsyAjA85bMU=/898x420/smart/filters:no_upscale()/wishbeen-seoul.s3.ap-northeast-2.amazonaws.com/post/1582868161057_%E1%84%89%E1%85%B3%E1%84%8F%E1%85%B3%E1%84%85%E1%85%B5%E1%86%AB%E1%84%89%E1%85%A3%E1%86%BA2020-02-28%E1%84%8B%E1%85%A9%E1%84%92%E1%85%AE2.35.40.png",
          "latitude" : 37.362415,
          "longitude": 127.105976
        }
      ]
    }
  ]
}
